[
  {
    "name": "J Paul's",
    "address": "3218 M St NW",
    "ZIP": 20007,
    "phone": "(202) 333-3450",
    "coords": { "latitude": 38.905005, "longitude": -77.063473 },
    "image":
      "https://s3-media2.fl.yelpcdn.com/bphoto/xNCEYofzv37I2a3c4npeOg/o.jpg"
  },
  {
    "name": "Old Glory BBQ",
    "address": "3139 M St NW",
    "ZIP": 20007,
    "phone": "(202) 337-3406",
    "coords": { "latitude": 38.9054641723633, "longitude": -77.0621948242188 },
    "image":
      "https://s3-media3.fl.yelpcdn.com/bphoto/AF8uYHMaoTDz-tdqOwtcQg/o.jpg"
  },
  {
    "name": "Pizzeria Paradiso",
    "address": "2003 P St NW",
    "ZIP": 20036,
    "phone": "(202) 223-1245",
    "coords": { "latitude": 38.9098109186293, "longitude": -77.0451466967047 },
    "image":
      "https://s3-media3.fl.yelpcdn.com/bphoto/lIBz-Vp2SgB_Amyk0HWWeQ/o.jpg"
  },
  {
    "name": "The Sovereign",
    "address": "1206 Wisconsin Ave NW",
    "ZIP": 20007,
    "phone": "(202) 774-5875",
    "coords": { "latitude": 38.9055439446593, "longitude": -77.063429367214 },
    "image":
      "https://s3-media3.fl.yelpcdn.com/bphoto/nlJ7dqAI_KnRVT47MhpUXQ/o.jpg"
  },
  {
    "name": "Chef Geoff's",
    "address": "3201 New Mexico Ave NW",
    "ZIP": 20016,
    "phone": "(202) 237-7800",
    "coords": { "latitude": 38.93311, "longitude": -77.08475 },
    "image":
      "https://s3-media1.fl.yelpcdn.com/bphoto/qjM74ke-kGvy2ePtdNjPfg/o.jpg"
  },
  {
    "name": "The Tombs",
    "address": "1226 36th St NW",
    "ZIP": 20007,
    "phone": "(202) 337-6668",
    "coords": { "latitude": 38.906042589577, "longitude": -77.0704738276551 },
    "image":
      "https://s3-media1.fl.yelpcdn.com/bphoto/fLA9m7HM75O5cXg_5pB_mQ/o.jpg"
  },
  {
    "name": "Chatter",
    "address": "5247 Wisconsin Ave NW",
    "ZIP": 20015,
    "phone": "(202) 362-8040",
    "coords": { "latitude": 38.95877, "longitude": -77.08437 },
    "image":
      "https://s3-media1.fl.yelpcdn.com/bphoto/COHKM2gEoSMmIK5B6i512A/o.jpg"
  },
  {
    "name": "Yosaku Japanese Restaurant",
    "address": "4712 Wisconsin Ave NW",
    "ZIP": 20016,
    "phone": "(202) 363-4453",
    "coords": { "latitude": 38.95146, "longitude": -77.08139 },
    "image":
      "https://s3-media1.fl.yelpcdn.com/bphoto/lqaZS9ldpDYOD9LPI9Zw1w/o.jpg"
  },
  {
    "name": "The Front Page",
    "address": "1333 New Hampshire Ave NW",
    "ZIP": 20036,
    "phone": "(202) 296-6500",
    "coords": { "latitude": 38.90843, "longitude": -77.04399 },
    "image":
      "https://s3-media1.fl.yelpcdn.com/bphoto/QGbFUqBvjiBR22fOhooFeA/o.jpg"
  },
  {
    "name": "Madam's Organ",
    "address": "2461 18th St NW",
    "ZIP": 20009,
    "phone": "(202) 667-5370",
    "coords": { "latitude": 38.9220428466797, "longitude": -77.0421447753906 },
    "image":
      "https://s3-media2.fl.yelpcdn.com/bphoto/f4YMgmQ9JhpPgMxxbiK_Sw/o.jpg"
  },
  {
    "name": "Smoke & Barrel",
    "address": "2471 18th St NW",
    "ZIP": 20009,
    "phone": "(202) 319-9353",
    "coords": { "latitude": 38.922291, "longitude": -77.042229 },
    "image":
      "https://s3-media1.fl.yelpcdn.com/bphoto/Q2mDsHxOgZ2x80C_jBuWJg/o.jpg"
  },
  {
    "name": "Johnny's Half Shell",
    "address": "1819 Columbia Rd NW",
    "ZIP": 20009,
    "phone": "(202) 506-5257",
    "coords": { "latitude": 38.9219, "longitude": -77.04367 },
    "image":
      "https://s3-media1.fl.yelpcdn.com/bphoto/t4SXCGOxBPHneUbL-3DBVQ/o.jpg"
  },
  {
    "name": "Roofers Union",
    "address": "2446 18th St NW",
    "ZIP": 20009,
    "phone": "(202) 232-7663",
    "coords": { "latitude": 38.9218181827909, "longitude": -77.0425165853195 },
    "image":
      "https://s3-media3.fl.yelpcdn.com/bphoto/oEXBO5zgxVgJ7Uug9Ie2MQ/o.jpg"
  },
  {
    "name": "Casa Luca",
    "address": "1099 New York Ave NW",
    "ZIP": 20001,
    "phone": "(202) 628-1099",
    "coords": { "latitude": 38.9015429946663, "longitude": -77.0268639767212 },
    "image":
      "https://s3-media2.fl.yelpcdn.com/bphoto/rPProeytXl1UjYAoJQp1pA/o.jpg"
  },
  {
    "name": "Mission",
    "address": "1606 20th St",
    "ZIP": 20009,
    "phone": "(202) 525-2010",
    "coords": { "latitude": 38.9115118, "longitude": -77.0450537 },
    "image":
      "https://s3-media3.fl.yelpcdn.com/bphoto/R6KB7ZhzANXx4X_VLv8Gdg/o.jpg"
  },
  {
    "name": "Shenanigan's Irish Pub",
    "address": "2450 18th St NW",
    "ZIP": 20009,
    "phone": "(202) 588-7405",
    "coords": { "latitude": 38.9217687710409, "longitude": -77.042607737955 },
    "image":
      "https://s3-media4.fl.yelpcdn.com/bphoto/1XT-Dkq5LCdZrAL7ubkfJA/o.jpg"
  },
  {
    "name": "Firefly",
    "address": "1310 New Hampshire Ave NW",
    "ZIP": 20036,
    "phone": "(202) 861-1310",
    "coords": { "latitude": 38.9076499, "longitude": -77.04582 },
    "image":
      "https://s3-media3.fl.yelpcdn.com/bphoto/_KpGYZsfoP-_f1mMo5UyQA/o.jpg"
  },
  {
    "name": "Sette Osteria",
    "address": "1666 Connecticut Ave NW",
    "ZIP": 20009,
    "phone": "(202) 483-3070",
    "coords": { "latitude": 38.912580335231, "longitude": -77.045462203332 },
    "image":
      "https://s3-media4.fl.yelpcdn.com/bphoto/dqo6H7wv8s_C9rS5_7vE3Q/o.jpg"
  },
  {
    "name": "Hank's Oyster Bar",
    "address": "1624 Q St NW",
    "ZIP": 20009,
    "phone": "(202) 462-4265",
    "coords": { "latitude": 38.91086, "longitude": -77.03811 },
    "image":
      "https://s3-media3.fl.yelpcdn.com/bphoto/ucVNaXp4rWbtsGFUvBCCTg/o.jpg"
  },
  {
    "name": "Hank's Oyster Bar",
    "address": "1624 Q St NW",
    "ZIP": 20009,
    "phone": "(202) 462-4265",
    "coords": { "latitude": 38.91086, "longitude": -77.03811 },
    "image":
      "https://s3-media3.fl.yelpcdn.com/bphoto/ucVNaXp4rWbtsGFUvBCCTg/o.jpg"
  },
  {
    "name": "Masala Art",
    "address": "1101 4th St SW",
    "ZIP": 20024,
    "phone": "(202) 554-1101",
    "coords": { "latitude": 38.8780052228845, "longitude": -77.0178608232788 },
    "image":
      "https://s3-media1.fl.yelpcdn.com/bphoto/0lnOkML81keJAIJ5-SR1vw/o.jpg"
  },
  {
    "name": "Jenny's At The Wharf",
    "address": "668 Water St SW",
    "ZIP": 20024,
    "phone": "(202) 554-2202",
    "coords": { "latitude": 38.87775, "longitude": -77.02275 },
    "image":
      "https://s3-media2.fl.yelpcdn.com/bphoto/CUwgN9b-tPQiN6drpxwgHw/o.jpg"
  },
  {
    "name": "Station 4",
    "address": "1101 4th St SW",
    "ZIP": 20024,
    "phone": "(202) 488-0987",
    "coords": { "latitude": 38.8773048181858, "longitude": -77.017900361421 },
    "image":
      "https://s3-media1.fl.yelpcdn.com/bphoto/KLrwL9vvNSnJLmxOnZnocA/o.jpg"
  },
  {
    "name": "The Airedale",
    "address": "3605 14th St",
    "ZIP": 20010,
    "phone": "(202) 722-1212",
    "coords": { "latitude": 38.9364166259766, "longitude": -77.0323944091797 },
    "image":
      "https://s3-media3.fl.yelpcdn.com/bphoto/2LQuoDgTU81ARBI9J2-mVQ/o.jpg"
  },
  {
    "name": "CityBar",
    "address": "400 E St SW",
    "ZIP": 20024,
    "phone": "(202) 795-2919",
    "coords": { "latitude": 38.882907, "longitude": -77.017982 },
    "image":
      "https://s3-media4.fl.yelpcdn.com/bphoto/idD_fKhEXeOHW11Nz_pHrw/o.jpg"
  },
  {
    "name": "The Pitch Tavern",
    "address": "4015 Georgia Ave NW",
    "ZIP": 20011,
    "phone": "(202) 560-5142",
    "coords": { "latitude": 38.9402933256822, "longitude": -77.0250112007551 },
    "image":
      "https://s3-media2.fl.yelpcdn.com/bphoto/YNSyyHkKk64yLjFTOcxg5Q/o.jpg"
  },
  {
    "name": "Looking Glass Lounge",
    "address": "3634 Georgia Ave NW",
    "ZIP": 20010,
    "phone": "(202) 722-7669",
    "coords": { "latitude": 38.935187, "longitude": -77.024495 },
    "image":
      "https://s3-media3.fl.yelpcdn.com/bphoto/ogS4_LeVpeJgLl0ZE-Y3uw/o.jpg"
  },
  {
    "name": "DC Reynolds",
    "address": "3628 Georgia Ave NW",
    "ZIP": 20010,
    "phone": "(202) 506-7178",
    "coords": { "latitude": 38.934886932373, "longitude": -77.0242462158203 },
    "image":
      "https://s3-media3.fl.yelpcdn.com/bphoto/QprOk7N2Fm9-Wj3UqaL44Q/o.jpg"
  },
  {
    "name": "Hawk 'n' Dove",
    "address": "329 Pennsylvania Ave SE",
    "ZIP": 20003,
    "phone": "(202) 547-0030",
    "coords": { "latitude": 38.8864474, "longitude": -77.0011481 },
    "image":
      "https://s3-media2.fl.yelpcdn.com/bphoto/swZVRP9OzE-75dI0Q3zZXw/o.jpg"
  },
  {
    "name": "Boxcar Tavern",
    "address": "224 7th St SE",
    "ZIP": 20003,
    "phone": "(202) 544-0518",
    "coords": { "latitude": 38.886547088623, "longitude": -76.9958114624023 },
    "image":
      "https://s3-media4.fl.yelpcdn.com/bphoto/S-IswtQQTFoAC-12Tg2jDg/o.jpg"
  },
  {
    "name": "Ten Tigers Parlour",
    "address": "3813 Georgia Ave NW",
    "ZIP": 20011,
    "phone": "(202) 506-2080",
    "coords": { "latitude": 38.9381256103516, "longitude": -77.0242614746094 },
    "image":
      "https://s3-media2.fl.yelpcdn.com/bphoto/nyUVnnmjVBldFIAO9y1aIg/o.jpg"
  },
  {
    "name": "Beacon Bar and Grill",
    "address": "1615 Rhode Island Ave NW",
    "ZIP": 20036,
    "phone": "(202) 872-1126",
    "coords": { "latitude": 38.9068859409301, "longitude": -77.0379296176767 },
    "image":
      "https://s3-media2.fl.yelpcdn.com/bphoto/yFefRdNsB0t5bp1kP-9JaQ/o.jpg"
  },
  {
    "name": "Lavagna",
    "address": "539 8th St SE",
    "ZIP": 20003,
    "phone": "(202) 546-5006",
    "coords": { "latitude": 38.8816113, "longitude": -76.9951403 },
    "image":
      "https://s3-media2.fl.yelpcdn.com/bphoto/tvYy0PZzYC-0lKaPYiKfHA/o.jpg"
  },
  {
    "name": "The Ugly Mug",
    "address": "723 8th St SE",
    "ZIP": 20003,
    "phone": "(202) 547-8459",
    "coords": { "latitude": 38.8804588317871, "longitude": -76.9953384399414 },
    "image":
      "https://s3-media1.fl.yelpcdn.com/bphoto/M_FnalNYF8wrekLs9gS0yA/o.jpg"
  },
  {
    "name": "Biergarten Haus",
    "address": "1355 H St NE",
    "ZIP": 20002,
    "phone": "(202) 388-4053",
    "coords": { "latitude": 38.89996, "longitude": -76.98649 },
    "image":
      "https://s3-media1.fl.yelpcdn.com/bphoto/rdVrGCCIky-fHoxdgsrowA/o.jpg"
  },
  {
    "name": "Ambar",
    "address": "523 8th St SE",
    "ZIP": 20003,
    "phone": "(202) 813-3039",
    "coords": { "latitude": 38.88208, "longitude": -76.99534 },
    "image":
      "https://s3-media1.fl.yelpcdn.com/bphoto/faK8cwCC45kUe0VoYNLCUg/o.jpg"
  },
  {
    "name": "H Street Country Club",
    "address": "1335 H St NE",
    "ZIP": 20002,
    "phone": "(202) 399-4722",
    "coords": { "latitude": 38.9000793278635, "longitude": -76.9870307952593 },
    "image":
      "https://s3-media3.fl.yelpcdn.com/bphoto/1PG98lwI55MdRl-r99iUrA/o.jpg"
  },
  {
    "name": "The Pursuit Wine Bar",
    "address": "1421 H St NE",
    "ZIP": 20002,
    "phone": "(202) 758-2139",
    "coords": { "latitude": 38.8999863, "longitude": -76.9847193 },
    "image":
      "https://s3-media2.fl.yelpcdn.com/bphoto/WMCxZ_LYgEQjTBu97LkfHQ/o.jpg"
  },
  {
    "name": "The Big Board",
    "address": "421 H St NE",
    "ZIP": 20002,
    "phone": "(202) 543-3630",
    "coords": { "latitude": 38.9000587463379, "longitude": -76.9997787475586 },
    "image":
      "https://s3-media2.fl.yelpcdn.com/bphoto/Mr9ZgIhQOrJAaQt_vl2S4A/o.jpg"
  },
  {
    "name": "Kingfisher",
    "address": "1414 14th St NW",
    "ZIP": 20005,
    "phone": "(202) 750-6600",
    "coords": { "latitude": 38.909378, "longitude": -77.032363 },
    "image":
      "https://s3-media3.fl.yelpcdn.com/bphoto/FHx4nfwwf9_fOkBRgm__Sg/o.jpg"
  },
  {
    "name": "Drafting Table",
    "address": "1529 14th St NW",
    "ZIP": 20005,
    "phone": "(202) 621-7475",
    "coords": { "latitude": 38.9107627868652, "longitude": -77.0315780639648 },
    "image":
      "https://s3-media2.fl.yelpcdn.com/bphoto/IGDZe_kaJNp6wE2_Q45b1g/o.jpg"
  },
  {
    "name": "Sotto",
    "address": "1610 14th St NW",
    "ZIP": 20009,
    "phone": "(202) 545-3459",
    "coords": { "latitude": 38.91156, "longitude": -77.03236 },
    "image":
      "https://s3-media2.fl.yelpcdn.com/bphoto/QI4BD9kURF6c6IcSD7v6-A/o.jpg"
  },
  {
    "name": "The Brixton",
    "address": "901 U St NW",
    "ZIP": 20001,
    "phone": "(202) 560-5045",
    "coords": { "latitude": 38.9172157859639, "longitude": -77.024245262146 },
    "image":
      "https://s3-media4.fl.yelpcdn.com/bphoto/RG8ae2gzrh9JkJo_dzCIUw/o.jpg"
  },
  {
    "name": "Chaplin's",
    "address": "1501 9th St NW",
    "ZIP": 20001,
    "phone": "(202) 644-8806",
    "coords": { "latitude": 38.909798, "longitude": -77.023651 },
    "image":
      "https://s3-media1.fl.yelpcdn.com/bphoto/hjfG7uKUH3yDHFR6k8BMmw/o.jpg"
  },
  {
    "name": "Dacha Beer Garden",
    "address": "1600 7th St NW",
    "ZIP": 20001,
    "phone": "(202) 350-9888",
    "coords": { "latitude": 38.9109966, "longitude": -77.0219468 },
    "image":
      "https://s3-media4.fl.yelpcdn.com/bphoto/RVWcWmafXY4YxNK1mftAKQ/o.jpg"
  },
  {
    "name": "Drift on 7th",
    "address": "1819 7th St NW",
    "ZIP": 20001,
    "phone": "(202) 350-4350",
    "coords": { "latitude": 38.9147579, "longitude": -77.0217751 },
    "image":
      "https://s3-media1.fl.yelpcdn.com/bphoto/n209k92WnHjhmRoNrePBHA/o.jpg"
  },
  {
    "name": "ChurchKey",
    "address": "1337 14th St NW",
    "ZIP": 20005,
    "phone": "(202) 567-2576",
    "coords": { "latitude": 38.9084128488013, "longitude": -77.0318697756855 },
    "image":
      "https://s3-media1.fl.yelpcdn.com/bphoto/yBfvlN5GoMnzcBQXROFxjg/o.jpg"
  },
  {
    "name": "Smith Commons",
    "address": "1245 H St NE",
    "ZIP": 20002,
    "phone": "(202) 396-0038",
    "coords": { "latitude": 38.90001, "longitude": -76.9887 },
    "image":
      "https://s3-media4.fl.yelpcdn.com/bphoto/X7vBsOd-L4HBm23vv8MMtg/o.jpg"
  },
  {
    "name": "Shaw's Tavern",
    "address": "520 Florida Ave NW",
    "ZIP": 20001,
    "phone": "(202) 518-4092",
    "coords": { "latitude": 38.91512, "longitude": -77.0196 },
    "image":
      "https://s3-media2.fl.yelpcdn.com/bphoto/cut7bV-oXHHk4NeYeSyTvg/o.jpg"
  },
  {
    "name": "Belga Cafe",
    "address": "514 8th St SE",
    "ZIP": 20003,
    "phone": "(202) 544-0100",
    "coords": { "latitude": 38.8822093120663, "longitude": -76.994770143586 },
    "image":
      "https://s3-media2.fl.yelpcdn.com/bphoto/S2iLfIJ8GpuAJ1TzzshDwA/o.jpg"
  },
  {
    "name": "Mr. Henry's",
    "address": "601 Pennsylvania Ave SE",
    "ZIP": 20003,
    "phone": "(202) 546-8412",
    "coords": { "latitude": 38.88519, "longitude": -76.99826 },
    "image":
      "https://s3-media1.fl.yelpcdn.com/bphoto/j8sj7jp4e-GGg2zfkDpaHg/o.jpg"
  },
  {
    "name": "Las Placitas",
    "address": "1100 8th St SE",
    "ZIP": 20003,
    "phone": "(202) 543-3700",
    "coords": { "latitude": 38.87738, "longitude": -76.99469 },
    "image":
      "https://s3-media2.fl.yelpcdn.com/bphoto/AGfjeBmMbid5O5ISrAIBPA/o.jpg"
  },
  {
    "name": "Logan Tavern",
    "address": "1423 P St NW",
    "ZIP": 20005,
    "phone": "(202) 332-3710",
    "coords": { "latitude": 38.9097849, "longitude": -77.0325964 },
    "image":
      "https://s3-media3.fl.yelpcdn.com/bphoto/TiOrZssE6cjK9kkp8hFGmw/o.jpg"
  },
  {
    "name": "Radici",
    "address": "303 7th St SE",
    "ZIP": 20003,
    "phone": "(202) 758-0086",
    "coords": { "latitude": 38.8858208, "longitude": -76.9962949 },
    "image":
      "https://s3-media1.fl.yelpcdn.com/bphoto/fgj5NFBfKr0akn2FHYMmLQ/o.jpg"
  },
  {
    "name": "Bravo Bar",
    "address": "2917 Georgia Ave NW",
    "ZIP": 20001,
    "phone": "(202) 629-2583",
    "coords": { "latitude": 38.927799, "longitude": -77.022782 },
    "image":
      "https://s3-media2.fl.yelpcdn.com/bphoto/Mv0xQiI9CQwsdPb4MtogpA/o.jpg"
  },
  {
    "name": "El Chucho",
    "address": "3313 11th St NW",
    "ZIP": 20010,
    "phone": "(202) 290-3313",
    "coords": { "latitude": 38.931091, "longitude": -77.027794 },
    "image":
      "https://s3-media4.fl.yelpcdn.com/bphoto/v2Rm0m-w5uhiZO6GVEVr4w/o.jpg"
  },
  {
    "name": "The Coupe",
    "address": "3415 11th St NW",
    "ZIP": 20010,
    "phone": "(202) 290-3342",
    "coords": { "latitude": 38.9325790405273, "longitude": -77.028190612793 },
    "image":
      "https://s3-media3.fl.yelpcdn.com/bphoto/Dv9XdGaMdRNBjSDFRou3pg/o.jpg"
  },
  {
    "name": "The Wonderland Ballroom",
    "address": "1101 Kenyon St NW",
    "ZIP": 20009,
    "phone": "(202) 232-5263",
    "coords": { "latitude": 38.9299231202487, "longitude": -77.0279416189186 },
    "image":
      "https://s3-media3.fl.yelpcdn.com/bphoto/0E21BLWPE51rbk6pa1B8fw/o.jpg"
  },
  {
    "name": "The Ugly Mug",
    "address": "723 8th St SE",
    "ZIP": 20003,
    "phone": "(202) 547-8459",
    "coords": { "latitude": 38.8804588317871, "longitude": -76.9953384399414 },
    "image":
      "https://s3-media1.fl.yelpcdn.com/bphoto/M_FnalNYF8wrekLs9gS0yA/o.jpg"
  },
  {
    "name": "The Heights Taproom",
    "address": "3115 14th St NW",
    "ZIP": 20010,
    "phone": "(202) 797-7227",
    "coords": { "latitude": 38.92975, "longitude": -77.03248 },
    "image":
      "https://s3-media2.fl.yelpcdn.com/bphoto/WjRIhdk8Cyw10Kidgo5xJg/o.jpg"
  },
  {
    "name": "The Big Hunt",
    "address": "1345 Connecticut Ave NW",
    "ZIP": 20036,
    "phone": "(202) 785-2333",
    "coords": { "latitude": 38.90851, "longitude": -77.0423 },
    "image":
      "https://s3-media1.fl.yelpcdn.com/bphoto/Kr5ZnokVyK6rXW1T4pGCnA/o.jpg"
  },
  {
    "name": "Emissary",
    "address": "2032 P St NW",
    "ZIP": 20036,
    "phone": "(202) 642-2603",
    "coords": { "latitude": 38.90951, "longitude": -77.04638 },
    "image":
      "https://s3-media1.fl.yelpcdn.com/bphoto/4f85bLeXGUIKvUQw46w6lw/o.jpg"
  },
  {
    "name": "City Tap House",
    "address": "901 I St NW",
    "ZIP": 20001,
    "phone": "(202) 733-5333",
    "coords": { "latitude": 38.9011329, "longitude": -77.0236995 },
    "image":
      "https://s3-media1.fl.yelpcdn.com/bphoto/mSgHanQcD9kABSB-YRE4pw/o.jpg"
  },
  {
    "name": "1831 Bar & Lounge",
    "address": "1831 M St NW",
    "ZIP": 20036,
    "phone": "(202) 223-1831",
    "coords": { "latitude": 38.905921, "longitude": -77.042991 },
    "image":
      "https://s3-media2.fl.yelpcdn.com/bphoto/9hJhywB_Cp6U72GUpv1AbA/o.jpg"
  },
  {
    "name": "Duke's Grocery",
    "address": "1513 17th St NW",
    "ZIP": 20036,
    "phone": "(202) 733-5623",
    "coords": { "latitude": 38.9101969, "longitude": -77.038134 },
    "image":
      "https://s3-media1.fl.yelpcdn.com/bphoto/Shel_Va2A090wLOKDvgUPw/o.jpg"
  },
  {
    "name": "Stoney's",
    "address": "1433 P St NW",
    "ZIP": 20005,
    "phone": "(202) 234-1818",
    "coords": { "latitude": 38.9098666264388, "longitude": -77.0333090715806 },
    "image":
      "https://s3-media2.fl.yelpcdn.com/bphoto/U6K-lszc6uZ8pJyq3-3zsQ/o.jpg"
  },
  {
    "name": "Black Jack",
    "address": "1612 14th St Nw",
    "ZIP": 20009,
    "phone": "(202) 319-1612",
    "coords": { "latitude": 38.91163, "longitude": -77.03229 },
    "image":
      "https://s3-media2.fl.yelpcdn.com/bphoto/CwVs8y3f-AVBHxXDT_ieDw/o.jpg"
  },
  {
    "name": "The Pig",
    "address": "1320 14th St NW",
    "ZIP": 20005,
    "phone": "(202) 290-2821",
    "coords": { "latitude": 38.90793, "longitude": -77.03229 },
    "image":
      "https://s3-media3.fl.yelpcdn.com/bphoto/tfq_cx1hk2aebJZfGSu2HQ/o.jpg"
  },
  {
    "name": "Radiator",
    "address": "1430 Rhode Island Ave NW",
    "ZIP": 20005,
    "phone": "(202) 742-3150",
    "coords": { "latitude": 38.9080299, "longitude": -77.03295 },
    "image":
      "https://s3-media3.fl.yelpcdn.com/bphoto/8fiosTa4lMJNvYFBxdB-Cg/o.jpg"
  },
  {
    "name": "Union Drinkery",
    "address": "3216 Georgia Ave",
    "ZIP": 20010,
    "phone": "(202) 808-8572",
    "coords": { "latitude": 38.930519, "longitude": -77.023757 },
    "image":
      "https://s3-media3.fl.yelpcdn.com/bphoto/yR4hEpN3nSc0BxUXshg-OQ/o.jpg"
  },
  {
    "name": "The Commodore Public House and Kitchen",
    "address": "1100 P St NW",
    "ZIP": 20005,
    "phone": "(202) 234-6870",
    "coords": { "latitude": 38.9095051, "longitude": -77.0272106 },
    "image":
      "https://s3-media2.fl.yelpcdn.com/bphoto/59fJhI95JZZ6tQsjrk79Jg/o.jpg"
  },
  {
    "name": "RedRocks Neapolitan Bistro",
    "address": "1348 H St NE",
    "ZIP": 20002,
    "phone": "(202) 621-7300",
    "coords": { "latitude": 38.9002853769642, "longitude": -76.9862644544638 },
    "image":
      "https://s3-media4.fl.yelpcdn.com/bphoto/0xA0J80zFlpUjpF4-lEeag/o.jpg"
  },
  {
    "name": "Meridian Pint",
    "address": "3400 11th St NW",
    "ZIP": 20010,
    "phone": "(202) 588-1075",
    "coords": { "latitude": 38.9319915771484, "longitude": -77.0285339355469 },
    "image":
      "https://s3-media2.fl.yelpcdn.com/bphoto/q_5ex-UPC5cu9VXGo-8XYQ/o.jpg"
  },
  {
    "name": "Red Derby",
    "address": "3718 14th St NW",
    "ZIP": 20010,
    "phone": "(202) 291-5000",
    "coords": { "latitude": 38.937687, "longitude": -77.033038 },
    "image":
      "https://s3-media3.fl.yelpcdn.com/bphoto/XS_hQO7WRp1A48a95UkKtw/o.jpg"
  },
  {
    "name": "Maple",
    "address": "3418 11th St NW",
    "ZIP": 20010,
    "phone": "(202) 588-7442",
    "coords": { "latitude": 38.9323273, "longitude": -77.0284103 },
    "image":
      "https://s3-media2.fl.yelpcdn.com/bphoto/E7i0UXVulbi_Od-ZZXjVLA/o.jpg"
  },
  {
    "name": "The Alibi",
    "address": "237 2nd St NW",
    "ZIP": 20001,
    "phone": "(202) 347-2237",
    "coords": { "latitude": 38.89338, "longitude": -77.01346 },
    "image":
      "https://s3-media2.fl.yelpcdn.com/bphoto/dx1-GLxRiobTMKoDfWKMxw/o.jpg"
  },
  {
    "name": "Beuchert's Saloon",
    "address": "623 Pennsylvania Ave SE",
    "ZIP": 20003,
    "phone": "(202) 733-1384",
    "coords": { "latitude": 38.8848457336426, "longitude": -76.9976577758789 },
    "image":
      "https://s3-media3.fl.yelpcdn.com/bphoto/MbW2s4sE2yJ4xcgHJswOvw/o.jpg"
  }
]
